[
        {
                "Name": "Kartica Shop",
                "location": "westbengal",
                "city": "kolkata",
                "image": "https: //cdn.pixabay.com/photo/2018/01/17/07/06/laptop-3087585_1280.jpg"
        },
        {
                "Name": "Ariyan Shop",
                "location": "westbengal",
                "city": "siliguri",
                "image": "https: //cdn.pixabay.com/photo/2015/07/31/11/45/library-869061_1280.jpg"
        },
        {
                "Name": "Binay Shop",
                "location": "assam",
                "city": "gawhati",
                "image": "https: //cdn.pixabay.com/photo/2016/11/22/21/57/apparel-1850804_640.jpg"
        },
        {
                "Name": "Rudra Shop",
                "location": "westbengal",
                "city": "alipurduar",
                "image": "https: //cdn.pixabay.com/photo/2017/01/28/02/24/japan-2014618_640.jpg"
        },
        {
                "Name": "Abhi Shop",
                "location": "bihar",
                "city": "pabanpur",
                "image": "https: //cdn.pixabay.com/photo/2020/01/30/21/24/shop-4806610_640.jpg"
        },
        {
                "Name": "Rishi Shop",
                "location": "westbengal",
                "city": "newtown",
                "image": "https: //cdn.pixabay.com/photo/2016/11/22/19/08/hangers-1850082_640.jpg"
        },
        {
                "Name": "Sanu Shop",
                "location": "jharkhand",
                "city": "rachi",
                "image": "https: //cdn.pixabay.com/photo/2023/07/03/12/48/hoi-an-8104131_640.jpg"
        },
        {
                "Name": "Golam Shop",
                "location": "bihar",
                "city": "gajiyabad",
                "image": "https: //cdn.pixabay.com/photo/2019/07/13/16/44/woman-4335235_640.jpg"
        },
        {
                "Name": "Shekhar Shop",
                "location": "mp",
                "city": "mpur",
                "image": "https: //cdn.pixabay.com/photo/2020/10/06/11/55/woman-5632026_640.jpg"
        },
        {
                "Name": "Sunit Shop",
                "location": "assam",
                "city": "gawhati",
                "image": "https: //cdn.pixabay.com/photo/2014/09/09/19/05/antique-440337_640.jpg"
        },
        {
                "Name": "Apurba Shop",
                "location": "assam",
                "city": "silong",
                "image": "https: //cdn.pixabay.com/photo/2013/08/01/18/21/woman-169286_640.jpg"
        },
        {
                "Name": "Laxmi Shop",
                "location": "jharkhand",
                "city": "jhar",
                "image": "https: //cdn.pixabay.com/photo/2018/04/13/11/14/shoes-3316260_640.jpg"
        },
        {
                "Name": "Durga Shop",
                "location": "jharkhand",
                "city": "khand",
                "image": "https: //cdn.pixabay.com/photo/2019/02/10/15/09/clothes-3987460_640.jpg"
        },
        {
                "Name": "Rajib Shop",
                "location": "mp",
                "city": "madanpur",
                "image": "https: //cdn.pixabay.com/photo/2017/08/05/13/31/building-2583628_640.jpg"
        },
        {
                "Name": "Mou Shop",
                "location": "mp",
                "city": "udaypur",
                "image": "https: //cdn.pixabay.com/photo/2018/04/13/11/14/shoes-3316260_640.jpg"
        },
        {
                "Name": "Virat Shop",
                "location": "bihar",
                "city": "binaypur",
                "image": "https: //cdn.pixabay.com/photo/2016/04/19/13/39/store-1338629_640.jpg"
        },
        {
                "Name": "Rohit Shop",
                "location": "bihar",
                "city": "badalpur",
                "image": "https: //cdn.pixabay.com/photo/2013/03/27/22/25/dress-shop-97261_640.jpg"
        },
        {
                "Name": "gnion Shop",
                "location": "bihar",
                "city": "gnionpur",
                "image": "https://cdn.pixabay.com/photo/2013/03/27/22/25/dress-shop-97261_640.jpg"
        }
]